ISO 8601 Time,Battery Voltage (V),GPS Fix,# of Satellites,HDOP,Lat (deg),Lon (deg),System Cal,Gyro Cal,Accel Cal,Mag Cal,Ax (m/s/s),Ay (m/s/s),Az (m/s/s),Mx (mG),My (mG),Mz (mG),Roll (deg),Pitch (deg),Yaw (deg),State
2022-04-27T13:06:19.281,,1,7,12,28.122,-80.575,0,3,3,2,-1.29,0.11,-9.94,45.688,9.75,5.25,,-7.062,286.375,4
2022-04-27T13:06:19.566,,1,7,12,28.122,-80.575,0,3,3,2,-1.17,0.1,-9.81,46.8,4.5,-178.875,-7.125,284.875,,4
2022-04-27T13:06:19.850,,1,7,12,28.122,-80.575,0,3,3,2,-1.3,-9.79,47.188,9.062,5.25,-178.875,-7.125,284.875,,4
2022-04-27T13:06:20.000,,1,7,12,28.122,-80.575,0,3,3,2,-1.26,0.1,-9.78,46.062,8.688,4.875,-178.938,-7.125,284.875,4
2022-04-27T13:06:20.293,,1,7,12,28.122,-80.575,0,3,3,2,-1.15,0.13,-9.78,46.875,9.062,5.25,-178.938,-7.125,284.875,4
2022-04-27T13:06:20.579,,1,7,12,28.122,-80.575,0,3,3,2,-1.23,0.12,-9.79,46.5,9.062,4.875,-178.938,-7.125,284.875,4
2022-04-27T13:06:20.930,,1,7,12,28.122,-80.575,0,3,3,2,-1.18,0.12,-9.79,46.875,9.5,6.875,-178.938,-7.125,284.875,4
2022-04-27T13:06:21.000,,1,7,12,28.122,-80.575,0,3,3,2,-1.21,0.09,-9.81,45.688,9.5,5.25,-178.938,-7.125,284.875,4
2022-04-27T13:06:21.288,,1,7,12,28.122,-80.575,0,3,3,2,-1.21,0.1,-9.78,45.688,8.688,5.25,-178.938,-7.125,284.875,4
2022-04-27T13:06:21.578,,1,7,12,28.122,-80.575,0,3,3,2,-1.2,0.14,-9.79,46.875,9.062,6.062,,-7.125,284.875,4
2022-04-27T13:06:22.000,,1,7,12,28.122,-80.575,0,3,3,2,-1.2,0.14,-9.78,46.5,8.688,6.062,-178.938,-7.125,284.875,4
2022-04-27T13:06:22.291,,1,7,12,28.122,-80.575,0,3,3,2,-1.24,0.11,-9.82,46.062,9.062,5.25,-178.938,-7.125,284.875,4
2022-04-27T13:06:22.580,,1,7,12,28.122,-80.575,0,3,3,2,-1.31,0.04,-9.84,46.875,9.5,6.062,-178.938,-7.125,284.875,4
2022-04-27T13:06:22.866,,1,7,12,28.122,-80.575,0,3,3,2,-1.17,0.31,-9.81,43.5,8.5,,-6.875,291.438,4,
2022-04-27T13:06:22.122,,1,7,12,28.122,-80.575,0,3,3,2,-1.2,0.28,-9.8,64.688,-12.562,27.25,,-6.875,291.438,4
2022-04-27T13:06:23.000,,1,7,12,28.122,-80.575,0,3,3,0,-1.17,0.27,-9.78,-59.5,112.688,,-6.875,291.438,4,
2022-04-27T13:06:23.289,,1,7,12,28.122,-80.575,0,3,3,0,-1.17,0.27,-9.77,115.688,132.688,,-6.875,291.438,4,
2022-04-27T13:06:24.000,,1,7,12,28.122,-80.575,0,3,3,0,-1.17,0.29,-9.81,129.875,-80.688,,-6.875,291.438,4,
2022-04-27T13:06:24.297,,1,7,12,28.122,-80.575,0,3,3,0,-1.17,0.26,-9.82,119.062,-77.688,112.688,,-6.875,291.438,4
2022-04-27T13:06:24.602,,1,7,12,28.122,-80.575,0,3,3,0,-1.17,0.29,-9.8,47.188,0.75,,-6.875,291.438,4,
2022-04-27T13:06:25.000,,1,7,12,28.122,-80.575,0,3,3,2,-1.17,0.16,-9.79,46.875,7.188,13.5,-178.125,-6.938,4,
2022-04-27T13:06:25.441,,1,7,12,28.122,-80.575,0,3,3,2,-1.13,0.4,-9.8,46.375,8.688,9.25,-178.438,-6.875,4,
2022-04-27T13:06:25.795,,1,7,12,28.122,-80.575,0,3,3,2,-1.1,0.3,-9.82,47,11.375,-178.312,-6.938,289.688,4,
2022-04-27T13:06:25.110,,1,7,12,28.122,-80.575,0,3,3,2,-1.2,0.24,-9.82,57.18,26.062,-178.312,-6.938,289.688,4,
2022-04-27T13:06:25.141,,1,7,12,28.122,-80.575,0,3,3,0,-1.19,0.24,-9.8,99.562,-56.75,53.875,-178.312,-6.875,289.688,4
2022-04-27T13:06:25.171,,1,7,12,28.122,-80.575,0,3,3,0,-1.17,0.24,-9.8,131.562,58.375,-178.312,-6.875,289.688,4,
2022-04-27T13:06:27.000,,1,7,12,28.122,-80.575,0,3,3,0,-1.18,0.23,-9.8,142.75,-81.375,51.75,-178.312,-6.875,289.688,4
2022-04-27T13:06:27.304,,1,7,12,28.122,-80.575,0,3,3,0,-1.17,0.23,-9.85,146.5,-78.375,48.562,-178.312,-6.875,289.688,4
2022-04-27T13:06:27.605,,1,7,12,28.122,-80.575,0,3,3,0,-1.2,0.25,-9.85,148.375,-77.688,50.188,-178.312,-6.875,289.688,4
2022-04-27T13:06:28.000,,1,7,12,28.122,-80.575,0,3,3,0,-1.19,0.23,-9.83,153.25,-79.5,50.562,-178.312,-6.875,289.688,4
2022-04-27T13:06:28.471,,1,7,12,28.122,-80.575,0,3,3,0,-1.27,0.21,-9.8,158.062,-80.188,48.188,-178.312,-6.875,289.688,4
2022-04-27T13:06:28.770,,1,7,12,28.122,-80.575,0,3,3,0,-1.16,0.22,-9.79,159.188,-79.875,47.75,-178.312,-6.875,289.688,4
2022-04-27T13:06:29.000,,1,7,12,28.122,-80.575,0,3,3,0,-1.18,0.24,-9.78,165.062,-82.87,-178.312,-6.875,289.688,4,
2022-04-27T13:06:29.293,,1,7,12,28.122,-80.575,0,3,3,0,-1.18,0.23,-9.78,164.75,-86.188,48.562,-178.312,-6.875,289.688,4
2022-04-27T13:06:29.593,,1,7,12,28.122,-80.575,0,3,3,0,-1.19,0.24,-9.79,162.875,45.25,-178.312,-6.875,289.688,4,
2022-04-27T13:06:29.894,,1,7,12,28.122,-80.575,0,3,3,0,-1.18,0.24,-9.79,172.562,-84.375,46.5,-178.312,-6.875,289.688,4
2022-04-27T13:06:29.118,,1,7,12,28.122,-80.575,0,3,3,0,-1.17,0.26,-9.8,-79.062,45.688,-178.312,-6.875,289.688,4,
2022-04-27T13:06:29.153,,1,7,12,28.122,-80.575,0,3,3,0,-1.17,0.26,-9.8,50.188,-178.312,-6.875,289.688,4,,
2022-04-27T13:06:29.183,,1,7,12,28.122,-80.575,0,3,3,0,-1.21,0.24,-9.81,-81.688,46.562,-178.312,-6.875,289.688,4,
2022-04-27T13:06:29.212,,1,7,12,28.122,-80.575,0,3,3,0,-1.16,0.25,-9.79,164.375,-86.188,49.75,-178.312,-6.875,289.688,4
2022-04-27T13:06:29.243,,1,7,12,28.122,-80.575,0,3,3,0,-1.18,0.24,-9.81,56.5,27.75,-178.312,-6.875,289.688,4,
2022-04-27T13:06:29.272,,1,7,12,28.122,-80.575,0,3,3,2,-1.2,0.21,-9.82,42.25,7.188,17.188,-178.37,289.812,4,
2022-04-27T13:06:32.135,,1,7,12,28.122,-80.575,0,3,3,2,-0.93,0.56,-9.96,46.75,10.188,13.375,-178.562,-6.875,290.125,4
2022-04-27T13:06:32.424,,1,7,17,28.122,-80.575,0,3,3,2,0.4,0.62,-10.29,8.25,15.375,-178.312,-6.938,289.812,4,
2022-04-27T13:06:32.716,,1,7,17,28.122,-80.575,0,3,3,2,-1.27,0.26,-9.8,46.375,8.25,-178.125,-6.938,291.562,4,
2022-04-27T13:06:33.000,,1,7,17,28.122,-80.575,0,3,3,2,-1.16,0.25,-9.8,8.25,17.062,-178.125,-6.75,291.438,4,
2022-04-27T13:06:33.298,,1,7,17,28.122,-80.575,0,3,3,2,-1.14,0.23,-9.83,46.3,14.562,-178.188,-6.875,291.438,4,
2022-04-27T13:06:33.584,,1,7,12,28.122,-80.575,0,3,3,2,-1.11,0.29,-9.81,46.375,8.688,14.562,-178.188,-6.812,291.438,4
2022-04-27T13:06:34.000,,1,7,12,28.122,-80.575,0,3,3,2,-1.15,0.3,-9.8,45.562,8.25,-178.188,-6.812,291.438,4,
2022-04-27T13:06:34.294,,1,7,12,28.122,-80.575,0,3,3,2,-1.21,0.19,-9.79,46.375,8.68,-178.188,-6.812,291.438,4,
2022-04-27T13:06:34.591,,1,7,17,28.122,-80.575,0,3,3,2,-1.2,0.17,-9.81,46.75,9.062,13.688,-178.188,-6.812,291.438,4
2022-04-27T13:06:35.000,,1,7,17,28.122,-80.575,0,3,3,2,-1.37,0.22,-9.93,46.75,12.562,-178.375,-6.688,291.438,4,
2022-04-27T13:06:35.433,,1,7,12,28.122,-80.575,0,3,3,2,-1.1,0.39,-9.82,47.062,8.688,14.562,-178.25,-6.625,291.438,4
2022-04-27T13:06:35.789,,1,7,12,28.122,-80.575,0,3,3,2,-1.03,0.28,-9.77,45.562,10.562,15.375,-178.062,-6.688,291.438,4
2022-04-27T13:06:35.109,,1,7,12,28.122,-80.575,0,3,3,2,-1.2,0.23,-9.78,47.062,9.5,14.188,-178.062,-6.688,291.438,4
2022-04-27T13:06:35.138,,1,7,12,28.122,-80.575,0,3,3,2,-1.19,0.18,-9.81,9.062,13.75,-178.062,-6.688,291.438,4,
2022-04-27T13:06:35.167,,1,7,12,28.122,-80.575,0,3,3,2,-1.04,0.32,-9.81,47.062,7.562,14.562,-177.938,-6.5,291.438,4
2022-04-27T13:06:37.000,,1,7,12,28.122,-80.575,0,3,3,2,-1.18,0.26,-9.8,73.188,-18.5,33.75,-177.938,-6.5,291.438,4
2022-04-27T13:06:37.291,,1,7,12,28.122,-80.575,0,3,3,0,-1.17,0.25,-9.78,118.25,-82.875,79.188,-177.938,-6.5,291.438,4
2022-04-27T13:06:37.580,,1,7,12,28.122,-80.575,0,3,3,0,-1.15,0.27,-9.8,133.5,-100.688,86.562,-177.938,-6.5,291.438,4
2022-04-27T13:06:37.870,,1,7,12,28.122,-80.575,0,3,3,0,-1.17,0.26,-9.8,143.188,-107.75,91.062,-177.938,-6.5,291.438,4
2022-04-27T13:06:37.133,,1,7,12,28.122,-80.575,0,3,3,0,-1.17,0.26,-9.8,150.25,85.375,-177.938,-6.5,291.438,4,
2022-04-27T13:06:38.000,,1,7,12,28.122,-80.575,0,3,3,0,-1.15,0.26,-9.79,147.688,-94.375,86.188,-177.938,-6.5,291.438,4
2022-04-27T13:06:38.299,,1,7,12,28.122,-80.575,0,3,3,0,-1.18,0.27,-9.79,153.562,-88.875,80.062,-177.938,-6.5,291.438,4
2022-04-27T13:06:39.000,,1,7,12,28.122,-80.575,0,3,3,0,-1.18,0.29,-9.78,151.75,-86.562,79.188,-177.938,-6.5,291.438,4
2022-04-27T13:06:39.293,,1,7,12,28.122,-80.575,0,3,3,0,-1.17,0.28,-9.82,155.5,-87.375,75.188,-177.938,-6.5,291.438,4
2022-04-27T13:06:39.584,,1,7,12,28.122,-80.575,0,3,3,0,-1.17,0.29,-9.8,161.5,-92.875,80.5,-177.938,-6.5,291.438,4
2022-04-27T13:06:39.874,,1,7,12,28.122,-80.575,0,3,3,0,-1.15,0.27,-9.79,165.188,85.75,-177.938,-6.5,291.438,4,
2022-04-27T13:06:39.123,,1,7,12,28.122,-80.575,0,3,3,0,-1.16,0.26,-9.78,-95.18,-177.938,-6.5,291.438,4,,
2022-04-27T13:06:39.152,,1,7,12,28.122,-80.575,0,3,3,0,-1.17,0.27,-9.78,53.062,-11.375,27.25,-177.938,-6.5,291.438,4
2022-04-27T13:06:41.000,,1,7,12,28.122,-80.575,0,3,3,2,-1.18,0.24,-9.79,38.875,-29.188,20.688,-177.938,-6.5,291.438,4
2022-04-27T13:06:41.301,,1,7,12,28.122,-80.575,0,3,3,2,-1.16,0.27,-9.79,26.25,-28.875,12.875,-177.938,-6.5,291.438,4
2022-04-27T13:06:41.600,,1,7,12,28.122,-80.575,0,3,3,2,-1.03,0.28,-9.74,15.875,-25.188,9.688,,-6.562,291.438,4
2022-04-27T13:06:42.000,,1,7,12,28.122,-80.575,0,3,3,2,-1.35,-0.12,-9.85,17.875,-26.75,9.375,-177.938,-6.5,291.688,4
2022-04-27T13:06:42.296,,1,7,12,28.122,-80.575,0,3,3,2,-4.18,4.29,-10.12,22.5,-27,-177.43,289.125,4,,
2022-04-27T13:06:42.590,,1,7,12,28.122,-80.575,0,3,3,2,-0.58,1.01,-9.74,21.688,-32.188,3.5,-177.938,-6.438,290.938,4
2022-04-27T13:06:57.000,,1,7,12,28.122,-80.575,0,3,3,2,-0.5,-8.64,36.875,-22.188,44.25,-175.25,-1.938,307.188,4,
2022-04-27T13:06:57.300,,1,7,12,28.122,-80.575,0,3,3,2,-0.48,1.27,-9.66,38.25,-21.375,43.875,-175.938,-4.125,308.062,4
2022-04-27T13:06:57.596,,1,7,12,28.122,-80.575,0,3,3,2,-0.76,0.84,-9.67,37.875,-21.75,43.875,-175.875,-3.688,307.75,4
2022-04-27T13:06:57.892,,1,7,12,28.122,-80.575,0,3,3,2,-0.76,0.61,-10.16,38.25,-21.375,42.688,-175.875,-3.5,307.375,4
2022-04-27T13:06:58.000,,1,7,12,28.122,-80.575,0,3,3,2,-0.45,0.88,-9.91,37.5,-21.375,44.25,-175.75,-3.25,307.188,4
2022-04-27T13:06:58.293,,1,7,12,28.122,-80.575,0,3,3,2,-0.8,0.46,-9.95,37.5,-21.75,42.25,-175.625,-3.25,306.688,4
2022-04-27T13:06:58.575,,1,7,12,28.122,-80.575,0,3,3,2,-0.58,0.9,-9.67,37.5,-21.375,43.875,-175.562,-3.062,306.312,4
2022-04-27T13:06:58.868,,1,7,12,28.122,-80.575,0,3,3,2,-0.72,0.66,-9.9,37.5,-21.75,43.5,-175.625,-2.812,305.938,4
2022-04-27T13:06:59.000,,1,7,12,28.122,-80.575,0,3,3,2,-0.59,0.91,-10.03,37.5,-23.25,43.875,-175.688,-2.812,305.812,4
2022-04-27T13:06:59.290,,1,7,12,28.122,-80.575,0,3,3,2,-0.59,0.66,-9.73,38.25,-21.75,43.875,-175.438,-2.688,305.625,4
2022-04-27T13:06:59.582,,1,7,12,28.122,-80.575,0,3,3,2,-0.48,0.85,-9.94,38.688,-21.75,44.688,-175.75,-2.562,305.75,4
2022-04-27T13:07:00.000,,1,7,12,28.122,-80.575,0,3,3,2,-0.43,0.74,-9.94,36.75,44.25,-175.75,-2.5,4,,
2022-04-27T13:07:00.290,,1,7,12,28.122,-80.575,0,3,3,2,-0.59,0.69,-9.87,37.188,-22.188,44.25,-175.812,-2.5,306.062,4
2022-04-27T13:07:00.580,,1,7,12,28.122,-80.575,0,3,3,2,-0.52,0.75,-9.8,37.875,-20.688,43.5,-175.625,-2.5,306.125,4
2022-04-27T13:07:01.000,,1,7,12,28.122,-80.575,0,3,3,2,-0.6,0.67,-9.91,38.25,-21.375,43.5,-175.375,-2.438,305.938,4
2022-04-27T13:07:01.301,,1,7,12,28.122,-80.575,0,3,3,2,-0.3,-9.82,37.188,44.25,-175.25,-2.5,305.812,4,,
2022-04-27T13:07:01.777,,1,7,12,28.122,-80.575,0,3,3,2,-0.5,0.65,-9.63,37.5,-21.75,44.25,-175.438,-2.562,306.125,4
2022-04-27T13:07:01.107,,1,7,12,28.122,-80.575,0,3,3,2,-0.42,0.83,-9.42,37.875,-22.188,43.875,-175.375,-2.875,306.188,4
2022-04-27T13:07:01.135,,1,7,12,28.122,-80.575,0,3,3,2,-0.42,0.74,-9.8,36.375,-22.875,43.5,-175.25,-2.688,306.625,4
2022-04-27T13:07:01.164,,1,7,12,28.122,-80.575,0,3,3,2,-0.64,0.89,-9.92,-21.375,43.062,-175.5,-3.812,306.438,4,
2022-04-27T13:07:03.000,,1,7,12,28.122,-80.575,0,3,3,2,-0.79,0.53,-9.93,38.688,-21.75,43.875,-175.938,-4.188,307.688,4
2022-04-27T13:07:03.287,,1,7,12,28.122,-80.575,0,3,3,2,-0.66,0.8,-9.85,42.688,-175.875,-3.438,307.625,4,,
2022-04-27T13:07:03.589,,1,7,12,28.122,-80.575,0,3,3,2,-0.67,0.74,-9.71,37.5,-21.375,43.5,-176.062,-3.438,307.5,4
2022-04-27T13:07:03.933,,1,7,12,28.122,-80.575,0,3,3,2,-0.59,0.57,-9.77,37.5,-21.75,43.875,-176.188,-3.25,307.562,4
2022-04-27T13:07:04.000,,1,7,12,28.122,-80.575,0,3,3,2,-0.41,0.65,-9.76,36.375,-21.375,43.875,-176.625,-3.5,308.125,4
2022-04-27T13:07:04.284,,1,7,12,28.122,-80.575,0,3,3,2,-0.62,0.66,-9.74,36.75,-21.75,44.25,,-3.25,308.125,4
2022-04-27T13:07:04.573,,1,7,12,28.122,-80.575,0,3,3,2,-0.66,0.79,-9.75,36.75,-20.25,44.25,-177.062,-3.562,307.875,4
2022-04-27T13:07:05.000,,1,7,12,28.122,-80.575,0,3,3,2,-0.43,0.22,-9.95,37.5,-20.25,43.5,-177.688,-3.188,307.062,4
2022-04-27T13:07:05.288,,1,7,12,28.122,-80.575,0,3,3,2,-0.99,0.25,-9.63,38.188,45.562,-177.312,-3.375,306.312,4,
2022-04-27T13:07:05.579,,1,7,12,28.122,-80.575,0,3,3,2,-0.34,0.58,-9.28,37.375,44.75,-176.812,-1.688,305.938,4,
2022-04-27T13:07:06.000,,1,7,12,28.122,-80.575,0,3,3,2,-0.13,0.67,-9.8,36.688,43.875,-177.438,-0.312,305.938,4,
2022-04-27T13:07:06.340,,1,7,12,28.122,-80.575,0,3,3,2,-0.33,0.1,-9.32,35.188,-19.562,44.25,-177.56,307.062,4,
2022-04-27T13:07:06.632,,1,7,12,28.122,-80.575,0,3,3,2,-0.23,0.63,-9.9,36.688,-20.25,45.062,-177.062,-1.562,306.625,4
2022-04-27T13:07:06.921,,1,7,12,28.122,-80.575,0,3,3,2,-0.22,0.5,-9.89,36.688,-20.25,44.25,-176.938,-1.5,306.625,4
2022-04-27T13:07:06.121,,1,7,12,28.122,-80.575,0,3,3,2,-0.31,0.24,-9.66,37.375,-20.688,43.5,-177.25,-1.875,306.312,4
2022-04-27T13:07:06.150,,1,7,12,28.122,-80.575,0,3,3,2,-0.37,0.59,-9.8,36.188,44.25,-177.312,-2.25,306.5,4,
2022-04-27T13:07:06.179,,1,7,12,28.122,-80.575,0,3,3,2,-0.34,0.35,-9.86,36.188,-20.688,44.688,-177.562,-2.188,306.375,4
2022-04-27T13:07:08.000,,1,7,12,28.122,-80.575,0,3,3,2,-0.66,1.19,-9.98,37.25,-20.25,44.25,-177.688,-3.5,302.875,4
2022-04-27T13:07:08.293,,1,7,12,28.122,-80.575,0,3,3,2,-2.53,0.8,-6.35,44.188,-23.75,43.25,-176.375,-3.188,272.812,4
2022-04-27T13:07:08.645,,1,7,12,28.122,-80.575,0,3,3,3,-1.69,-0.2,-6.95,57.062,40.188,170.312,-14.188,234.062,4,
2022-04-27T13:07:08.932,,1,7,12,28.122,-80.575,0,3,3,3,0.61,1.81,-9.38,42.688,9.5,45.75,177.625,1.5,208.312,2
2022-04-27T13:07:09.000,,1,7,12,28.122,-80.575,0,3,3,3,-0.51,-1.52,-10.38,43.68,43.062,171.125,-0.5,204.688,2,
2022-04-27T13:07:09.289,,1,7,12,28.122,-80.575,0,3,3,3,-0.02,-0.88,-9.78,44.18,43.375,172.438,-1.938,203.938,2,
2022-04-27T13:07:09.587,,1,7,12,28.122,-80.575,0,3,3,3,-0.37,-1.11,-9.78,44.875,9.75,43.875,172.5,-1.625,204.25,2
2022-04-27T13:07:10.000,,1,7,12,28.122,-80.575,0,3,3,3,-0.22,-0.99,-9.83,43.75,11.25,43.375,172.562,-1.438,2,
2022-04-27T13:07:10.290,,1,7,12,28.122,-80.575,0,3,3,3,-0.25,-0.92,-9.83,44.188,10.562,43.062,172.81,204.312,2,
2022-04-27T13:07:10.587,,1,7,12,28.122,-80.575,0,3,3,3,-0.12,-1.02,-9.97,43.75,173.25,-1.062,204.25,2,,
2022-04-27T13:07:11.000,,1,7,12,28.122,-80.575,0,3,3,3,-0.18,-1.04,-9.83,43.75,41.75,173.438,-1.375,204.25,2,
2022-04-27T13:07:11.294,,1,7,12,28.122,-80.575,0,3,3,3,-0.21,-0.82,-9.59,44.188,9.5,43.375,173.688,-1.188,204.312,2
2022-04-27T13:07:11.594,,1,7,12,28.122,-80.575,0,3,3,3,-0.22,-0.81,-9.95,43.375,10.188,42.562,174.125,-1.375,204.25,2
2022-04-27T13:07:11.895,,1,7,12,28.122,-80.575,0,3,3,3,-0.23,-0.93,-9.79,44.875,10.188,43.875,174.06,204.312,2,
2022-04-27T13:07:11.119,,1,7,12,28.122,-80.575,0,3,3,3,0.11,-0.96,-9.9,43.75,9.5,43.062,174.062,-0.5,2,
2022-04-27T13:07:11.147,,1,7,12,28.122,-80.575,0,3,3,3,-0.1,-0.97,-10.03,42.688,9.75,43.375,174.375,-0.375,203.688,2
2022-04-27T13:07:13.0001,,,7,12,28.122,-80.575,0,3,3,3,-0.12,-0.81,-9.76,44.188,10.188,44.188,174.375,-0.625,203.75,2
2022-04-27T13:07:13.353,,1,7,12,28.122,-80.575,0,3,3,3,-0.09,-0.87,-9.69,43.375,9.75,44.188,174.25,-0.5,203.812,2
2022-04-27T13:07:13.648,,1,7,12,28.122,-80.575,0,3,3,3,-0.04,-0.92,-9.73,43.75,42.188,174.312,-0.562,203.625,2,
2022-04-27T13:07:14.000,,1,7,12,28.122,-80.575,0,3,3,3,1.08,-0.13,-10.08,31.5,9.75,48.375,169.375,22.188,210.938,2
2022-04-27T13:07:14.305,,1,7,12,28.122,-80.575,0,3,3,3,5.82,-2.95,-5.98,9.375,17.188,46.562,154.312,41.938,165.688,2
2022-04-27T13:07:14.602,,1,7,12,28.122,-80.575,0,3,3,3,6.41,0.44,-10.97,16.062,6.25,49.688,-174.5,29.75,204.25,2
2022-04-27T13:07:14.893,,1,7,12,28.122,-80.575,0,3,3,3,4.59,4.15,-6.91,16.562,-7.25,50.188,-139.375,29.688,276.125,2
2022-04-27T13:07:14.119,,1,7,12,28.122,-80.575,0,3,3,3,3.98,5.83,-6.64,13.562,49.375,-139.812,24.812,283.375,2,
2022-04-27T13:07:14.148,,1,7,12,28.122,-80.575,0,3,3,3,3.55,5.65,-7.41,13.75,48.562,-141.938,24.062,172.5,2,
2022-04-27T13:07:14.184,,1,7,12,28.122,-80.575,0,3,3,3,2.7,4.97,-9.16,18.875,-0.875,51.5,-158.312,14.25,169.062,2
2022-04-27T13:07:16.000,,1,7,12,28.122,-80.575,0,3,3,3,0.44,3.53,-9.01,24.188,4.188,48.5,-158.062,4.938,161.688,2
2022-04-27T13:07:16.308,,1,7,12,28.122,-80.575,0,3,3,3,0.61,3.07,-9.64,7.75,-165.188,2.312,160.625,2,,
2022-04-27T13:07:16.610,,1,7,12,28.122,-80.575,0,3,3,3,0.25,0.15,-9.63,27.062,25.062,41.75,177.625,1.188,155.875,2
2022-04-27T13:07:17.000,,1,7,12,28.122,-80.575,0,3,3,3,-0.16,-0.32,-8.73,26.375,24.25,42.75,173.4,163.312,2,
2022-04-27T13:07:17.308,,1,7,12,28.122,-80.575,0,3,3,3,1.51,-1.03,-9.86,26.688,23.562,43.25,171.688,8.312,170.562,2
2022-04-27T13:07:17.610,,1,7,12,28.122,-80.575,0,3,3,3,1.41,-1.63,-9.95,26.25,24.375,42.5,171.125,8.5,169.75,2
2022-04-27T13:07:17.911,,1,7,12,28.122,-80.575,0,3,3,3,1.15,-1.14,-9.72,26.688,23.688,42.5,171.812,7.938,169.562,2
2022-04-27T13:07:18.000,,1,7,12,28.122,-80.575,0,3,3,3,0.94,-1.04,-9.68,26.688,24.75,41.562,172.625,7.875,169.375,2
2022-04-27T13:07:18.316,,1,7,12,28.122,-80.575,0,3,3,3,1.03,-1.07,-9.54,26.688,24.375,43.25,172.625,7.25,169.375,2
2022-04-27T13:07:18.627,,1,7,12,28.122,-80.575,0,3,3,3,1.08,-0.98,-9.76,26.188,24.5,42.875,172.875,7.25,169.375,2
2022-04-27T13:07:19.000,,1,7,12,28.122,-80.575,0,3,3,3,1.11,-1.04,-9.55,25.75,24.062,42.875,173.188,7.875,169.188,2
2022-04-27T13:07:19.300,,1,7,12,28.122,-80.575,0,3,3,3,1.12,-1.29,-9.7,25.75,24.5,43.25,172.438,7.188,168.75,2
2022-04-27T13:07:19.610,,1,7,12,28.122,-80.575,0,3,3,3,1.03,-0.93,-9.55,27.25,23.688,43.25,172.938,7.062,168.75,2
2022-04-27T13:07:19.915,,1,7,12,28.122,-80.575,0,3,3,3,1.23,-1.07,-9.98,26.18,42.875,173.688,7.438,169.75,2,
2022-04-27T13:07:19.122,,1,7,12,28.122,-80.575,0,3,3,3,1.11,-0.83,-9.99,26.875,23.25,43.25,174.062,6.375,169.625,2
2022-04-27T13:07:19.159,,1,7,12,28.122,-80.575,0,3,3,3,1.1,-0.87,-9.99,27.688,23.25,42.5,173.688,5.688,169.625,2
2022-04-27T13:07:21.000,,1,7,12,28.122,-80.575,0,3,3,3,0.79,-1.1,-9.58,28.75,23.688,44.5,173.5,4.938,171.25,2
2022-04-27T13:07:21.299,,1,7,12,28.122,-80.575,0,3,3,3,0.71,-0.99,-9.95,43.25,170.938,2,,,,
2022-04-27T13:07:21.604,,1,7,12,28.122,-80.575,0,3,3,3,0.71,-1.02,-9.88,28.75,23.688,42.5,173.75,3.688,170.625,2
2022-04-27T13:07:21.901,,1,7,12,28.122,-80.575,0,3,3,3,0.66,-1.13,-9.6,29.5,42.5,173.875,3.562,170.562,2,
2022-04-27T13:07:21.119,,1,7,12,28.122,-80.575,0,3,3,3,0.46,-0.91,-9.71,27.688,22.562,42.5,173.938,3.625,170.312,2
2022-04-27T13:07:21.148,,1,7,12,28.122,-80.575,0,3,3,3,0.41,3.84,-6.74,26.188,19.188,45.25,175.875,9.312,190.875,2
2022-04-27T13:07:23.000,,1,7,12,28.122,-80.575,0,3,3,3,-1.75,3.31,-7.7,30.188,3.25,47.188,-177.188,-6.688,211.812,2
2022-04-27T13:07:23.295,,1,7,12,28.122,-80.575,0,3,3,3,0.88,-1.47,-10.69,31.875,9.5,43.562,173.375,4.938,207.562,2
2022-04-27T13:07:23.589,,1,7,12,28.122,-80.575,0,3,3,3,-0.16,-1.39,-9.96,33.75,8.688,41.562,174.875,1.438,204.125,2
2022-04-27T13:07:23.883,,1,7,12,28.122,-80.575,0,3,3,3,0.42,-0.99,-9.66,35.188,9.5,173.875,-0.125,203.625,2,
2022-04-27T13:07:24.000,,1,7,12,28.122,-80.575,0,3,3,3,-0.47,-0.89,-10.17,37.375,9.062,40.375,174.938,-3.188,203.562,2
2022-04-27T13:07:24.292,,1,7,12,28.122,-80.575,0,3,3,3,-0.47,-1.13,-9.9,37.375,9.062,40.688,175.812,-3.625,202.75,2
2022-04-27T13:07:24.586,,1,7,12,28.122,-80.575,0,3,3,,-0.37,-9.77,38.5,8.688,39.5,176.062,-4.938,203.375,2,
2022-04-27T13:07:24.886,,1,7,12,28.122,-80.575,0,3,3,3,-0.14,-2.12,-5.68,38.06,38.562,163.75,-5.375,199.75,2,
2022-04-27T13:07:24.123,,1,7,12,28.122,-80.575,0,3,3,3,-2.45,-0.79,-10.35,41.75,8.68,173.562,-10.188,204.438,2,
2022-04-27T13:07:24.153,,1,7,12,28.122,-80.575,0,3,3,3,-2.57,-0.62,-9.55,43.25,8.375,36.375,175.375,-11.875,206.188,2
2022-04-27T13:07:26.000,,1,7,12,28.122,-80.575,0,3,3,3,-2.75,-0.93,-9.61,43.562,7.562,35.5,175.312,-12.812,206.125,2
2022-04-27T13:07:26.291,,1,7,12,28.122,-80.575,0,3,3,3,-2.86,-0.89,-9.34,7.188,34.688,174.438,-13.938,206.625,2,
2022-04-27T13:07:26.580,,1,7,12,28.122,-80.575,0,3,3,3,-2.3,-0.82,-9.09,44.6,34.25,173.625,-14.375,206.75,2,
2022-04-27T13:07:27.000,,1,7,12,28.122,-80.575,0,3,3,3,-2.83,-0.96,-9.71,44.25,9.062,35.062,173.562,-14.312,205.688,2
2022-04-27T13:07:27.299,,1,7,12,28.122,-80.575,0,3,3,3,-1.32,-0.67,-10.1,39.75,7.562,37.562,176.062,-8.75,205.188,2
2022-04-27T13:07:27.588,,1,7,12,28.122,-80.575,0,3,3,3,-2.52,-0.63,-9.58,40.188,8.375,38.5,175.5,-6.125,202.438,2
2022-04-27T13:07:27.929,,1,7,12,28.122,-80.575,0,3,3,3,-0.02,-0.2,-10.04,33.75,7.562,42.062,-178.75,-0.188,193.938,2
2022-04-27T13:07:28.000,,1,7,12,28.122,-80.575,0,3,3,3,-0.43,0.95,-8.79,33.25,8.25,-178.5,193.438,2,,
2022-04-27T13:07:28.293,,1,7,12,28.122,-80.575,0,3,3,3,-0.03,0.61,-10.04,32.062,7.062,42.562,-176.062,2.125,194.375,2
2022-04-27T13:07:28.586,,1,7,12,28.122,-80.575,0,3,3,3,0.09,1.24,-8.89,32.062,5.25,-175.062,1.062,195.875,2,
2022-04-27T13:07:28.880,,1,7,12,28.122,-80.575,0,3,3,3,0.82,2.33,-8.74,33.875,2.688,44.188,-172.562,2.938,197.688,2
2022-04-27T13:07:29.000,,1,7,12,28.122,-80.575,0,3,3,3,-0.97,1.12,-7.06,30.562,0.75,44.062,-170.438,4.188,196.875,2
2022-04-27T13:07:29.291,,1,7,12,28.122,-80.575,0,3,3,3,-0.12,1.29,-9.98,31.688,1.56,-172.25,4.625,197.688,2,
2022-04-27T13:07:29.587,,1,7,12,28.122,-80.575,0,3,3,3,0.55,-2.64,-8.03,30.875,8.188,43.25,178.688,-2.938,197.938,2
2022-04-27T13:07:29.933,,1,7,12,28.122,-80.575,0,3,3,3,1.51,1.58,-15.67,37.75,5.188,40.688,-173.188,-5.25,198.5,2
2022-04-27T13:07:30.000,,1,7,12,28.122,-80.575,0,3,3,3,3.71,1.23,-10.58,35.75,5.062,41.062,-175.812,6.938,202.625,2
2022-04-27T13:07:30.291,,1,7,12,28.122,-80.575,0,3,3,3,2.18,0.79,-11.71,28.062,2.062,45.062,-172.75,7.5,200.938,2
2022-04-27T13:07:31.000,,1,7,12,28.122,-80.575,0,3,3,3,0.11,0.79,-7.89,27.188,2.75,44.562,-175.5,7.688,200.75,2
2022-04-27T13:07:31.304,,1,7,12,28.122,-80.575,0,3,3,3,1.53,-0.73,-9.24,29.875,8.688,44.562,175.312,8.562,201.062,2
2022-04-27T13:07:31.600,,1,7,12,28.122,-80.575,0,3,3,3,3.62,-1.39,-9.91,18.75,14.5,45.062,164.062,21.5,207.562,2
2022-04-27T13:07:31.893,,1,7,12,28.122,-80.575,0,3,3,3,0.53,-6.32,16.375,16.87,154.625,18.938,213.188,2,,
2022-04-27T13:07:31.124,,1,7,12,28.122,-80.575,0,3,3,3,0.58,-4.1,-8.25,30.375,18.25,40.5,155.312,4.188,213.688,2
2022-04-27T13:07:31.153,,1,7,12,28.122,-80.575,0,3,3,3,-0.18,-3.22,-9.4,33.375,14.562,39.875,161.062,0.812,211.75,2
2022-04-27T13:07:31.183,,1,7,12,28.122,-80.575,0,3,3,3,-0.14,-3.29,-7.54,17.188,39.75,159.75,2.062,210.062,2,
2022-04-27T13:07:33.000,,1,7,12,28.122,-80.575,0,3,3,3,0.91,-3.1,-5.68,34.75,15.688,38.188,165.75,-3.625,197.25,2
2022-04-27T13:07:33.305,,1,7,12,28.122,-80.575,0,3,3,3,-3.49,-3.78,34.062,30.25,27.188,-25.812,150.625,2,,
2022-04-27T13:07:33.602,,1,7,12,28.122,-80.575,0,3,3,3,-6.18,-1.6,-5.59,33.875,36.25,14.062,151.312,-54.75,163.875,2
2022-04-27T13:07:33.889,,1,7,12,28.122,-80.575,0,3,3,3,-10.11,-2.33,-3.69,33.75,36.25,12.25,138.562,-62.875,155.625,2
2022-04-27T13:07:34.000,,1,7,12,28.122,-80.575,0,3,3,3,-3.5,-4.39,-4.42,36.688,9.188,131.938,-66.5,156.375,2,
2022-04-27T13:07:34.349,,1,7,12,28.122,-80.575,0,3,3,3,-9.59,-2.66,-3.7,33.562,37.062,6.25,-72.5,157.625,2,
2022-04-27T13:07:35.000,,1,7,12,28.122,-80.575,0,3,3,3,3.76,-7.34,-20.92,42.5,25.062,13.5,171.125,-17.812,160.875,2
2022-04-27T13:07:35.298,,1,7,12,28.122,-80.575,0,3,3,3,-2.44,-4.17,-4.45,12.875,25.875,38.062,151.875,18.375,2,
2022-04-27T13:07:35.594,,1,7,12,28.122,-80.575,0,3,3,3,7.25,-8.3,-4.8,22.06,123.188,43.75,164.438,2,,
2022-04-27T13:07:35.888,,1,7,12,28.122,-80.575,0,3,3,3,6.87,-5.71,1.28,-29.375,30.5,22.375,77.562,52.875,165.375,2
2022-04-27T13:07:36.000,,1,7,12,28.122,-80.575,0,3,3,3,7.21,-5.46,1.02,-28.688,31.875,18.75,74.5,51.5,154.438,2
2022-04-27T13:07:36.291,,1,7,12,28.122,-80.575,0,3,3,3,8.06,-6.01,1.78,-26.062,36.688,12.25,62.688,46.062,96.188,2
2022-04-27T13:07:36.592,,1,7,12,28.122,-80.575,0,3,3,3,5.21,-4.65,4.72,3.5,52.438,41.312,55.125,2,,
2022-04-27T13:07:37.000,,1,7,12,28.122,-80.575,0,3,3,3,5.53,-5.69,4.4,-20.06,3.375,53.375,39.625,34.75,2,
2022-04-27T13:07:37.303,,1,7,12,28.122,-80.575,0,3,3,3,5.44,-5.66,4.41,-18.56,1.25,52.125,38.562,23.875,2,
2022-04-27T13:07:37.600,,1,7,12,28.122,-80.575,0,3,3,3,5.54,-6.24,3.91,-17.5,42.375,1.688,52.75,38.188,16.312,2
2022-04-27T13:07:37.893,,1,7,12,28.122,-80.575,1,3,3,3,4.6,-3.26,6.74,-17.06,34.31,9.688,2,,,
2022-04-27T13:07:37.1201,,1,7,12,28.122,-80.575,2,3,3,3,3.83,-3.35,7.43,-16.375,37.375,-15.25,26.5,30.188,7.312,2
2022-04-27T13:07:38.000,,1,7,12,28.122,-80.575,3,3,3,3,4.21,-5.11,6.76,-15.562,39.188,-16.062,28.062,29.75,3.75,2
2022-04-27T13:07:38.295,,1,7,12,28.122,-80.575,3,3,3,3,0.61,0.4,8.45,-5.875,28.688,-31.375,-0.062,11.688,352.5,2
2022-04-27T13:07:39.000,,1,7,12,28.122,-80.575,3,3,3,3,1.23,-0.27,8.74,1.562,23.375,-34.875,-1.25,8.25,350.5,2
2022-04-27T13:07:39.363,,1,7,12,28.122,-80.575,3,3,3,3,0.65,0.29,8.29,3.062,23.75,-35.25,-2.312,7.438,346.625,2
2022-04-27T13:07:39.655,,1,7,12,28.122,-80.575,3,3,3,3,1.15,1.71,8.76,3.062,24.188,-33.56,8.125,345.875,2,
2022-04-27T13:07:39.1084,,1,7,12,28.122,-80.575,3,3,3,3,0.25,1.1,8.98,1.562,23.375,-34.875,-2.5,9.938,343.875,2
2022-04-27T13:07:39.1380,,1,7,12,28.122,-80.575,3,3,3,3,-0.94,1.9,8.67,3.062,23.375,-35.25,-3.062,5.5,343.812,2
2022-04-27T13:07:39.1670,,1,7,12,28.122,-80.575,3,3,3,3,-1.32,1.11,4.16,9.25,22.688,-35.75,-0.875,-1.562,342.562,2
2022-04-27T13:07:39.1960,,1,7,12,28.122,-80.575,3,3,3,3,-1.5,-1.21,-3.63,7.375,24.5,-33.6,-0.438,342.312,2,
2022-04-27T13:07:39.2258,,1,7,12,28.122,-80.575,3,3,3,3,-0.52,0.23,6.66,6.25,23.25,2.25,341.438,2,,
2022-04-27T13:07:39.2610,,1,7,12,28.122,-80.575,3,3,3,3,1.13,-2.29,10.2,4.062,31.062,-29.188,13.062,3.875,346.938,2
2022-04-27T13:07:42.000,,1,7,12,28.122,-80.575,3,3,3,3,-2.01,-3.33,5.52,-0.25,38.188,-21.5,25.562,0.625,1.188,2
2022-04-27T13:07:42.293,,1,7,12,28.122,-80.575,3,3,3,3,-0.63,-3.79,9.61,-1.5,36.875,-23.875,19.688,-2.188,8.438,2
2022-04-27T13:07:42.588,,1,7,12,28.122,-80.575,3,3,3,3,-0.99,-3.73,8.69,-3.5,34.875,-24.875,19.562,-3.375,16.125,2
2022-04-27T13:07:43.000,,1,7,12,28.122,-80.575,3,3,3,3,0.12,-3.81,9.64,-5.688,34.875,-24.875,17.312,-4.5,2,
2022-04-27T13:07:43.295,,1,7,12,28.122,-80.575,3,3,3,3,-1.23,-0.32,10.03,0.562,29.688,7.188,-2.625,358.125,2,
2022-04-27T13:07:43.586,,1,7,12,28.122,-80.575,3,3,3,3,-0.32,-0.62,9.55,2.875,28.875,5.5,-0.25,353.25,2,
2022-04-27T13:07:43.881,,1,7,12,28.122,-80.575,3,3,3,3,0.88,-0.29,10.18,2.062,27.25,2.938,3.938,348.938,2,
2022-04-27T13:07:43.1247,,1,7,12,28.122,-80.575,3,3,3,3,2.64,-1.77,9.12,-3.06,7.688,16.25,344.625,2,,
2022-04-27T13:07:43.1549,,1,7,12,28.122,-80.575,3,3,3,3,2.17,-2.05,8.1,-3.875,32.375,12.312,15.938,343.938,2,
2022-04-27T13:07:43.1831,,1,7,12,28.122,-80.575,3,3,3,3,1.53,-2.71,8.63,-0.188,30.188,-30.375,10.375,9.688,343.875,2
2022-04-27T13:07:45.000,,1,7,12,28.122,-80.575,3,3,3,3,2.09,-1.67,9.8,3.875,30.5,-30.375,9.812,7.25,343.688,2
2022-04-27T13:07:45.289,,1,7,12,28.122,-80.575,3,3,3,3,0.05,-1.05,8.68,3.188,30.875,-29.562,7.688,3.25,345.312,2
2022-04-27T13:07:45.578,,1,7,12,28.122,-80.575,3,3,3,3,-0.85,0.34,9.6,24.875,1.375,-1.125,345.562,2,,
2022-04-27T13:07:46.000,,1,7,12,28.122,-80.575,3,3,3,3,0.41,-1.56,9,29.75,-30.5,8.312,6.812,345.062,2,
2022-04-27T13:07:46.293,,1,7,12,28.122,-80.575,3,3,3,3,0.32,0.06,9.39,2.75,30.188,-30.5,4.75,3.875,345.938,2
2022-04-27T13:07:46.632,,1,7,12,28.122,-80.575,3,3,3,3,-0.52,-0.49,10.14,9.875,24.875,-34.25,2.438,-3.25,343.562,2
2022-04-27T13:07:46.918,,1,7,12,28.122,-80.575,3,3,3,3,-1.62,-1.68,4.98,6.062,27.188,-33.5,5.062,0.5,2,
2022-04-27T13:07:46.1208,,1,7,12,28.122,-80.575,3,3,3,3,-0.06,-1.4,10.53,3.188,28.688,-31.8,3.812,346.625,2,
2022-04-27T13:07:46.1494,,1,7,12,28.122,-80.575,3,3,3,3,-0.47,2.1,14.89,6.87,-35.562,-4.188,0.125,346.562,2,
2022-04-27T13:07:46.1778,,1,7,12,28.122,-80.575,3,3,3,3,-1.54,1.75,12.24,6.875,24.75,-34.75,-0.125,-1.375,346.438,2
2022-04-27T13:07:48.000,,1,7,12,28.122,-80.575,3,3,3,3,-1.22,0.35,8.97,2.375,27.062,-33.875,-0.438,3.125,349.875,2
2022-04-27T13:07:48.302,,1,7,12,28.122,-80.575,3,3,3,3,-0.58,1.27,10.82,2.75,19.562,-37.562,-6.812,-4.438,350.75,2
2022-04-27T13:07:48.586,,1,7,12,28.122,-80.575,3,3,3,3,-0.92,0.15,9.9,9.875,21.062,-34.375,-4.75,-4.625,2,
2022-04-27T13:07:48.923,,1,7,12,28.122,-80.575,3,3,3,3,1.26,-1.24,9.6,2.375,24.5,-34.375,-1.812,6.062,346.25,2
2022-04-27T13:07:49.000,,1,7,12,28.122,-80.575,3,3,3,3,-0.03,0.99,9.47,2.688,24.5,-0.875,3.875,346.812,2,
2022-04-27T13:07:49.280,,1,7,12,28.122,-80.575,3,3,3,3,0.24,0.21,9.39,0.062,28.188,-33.688,4.5,10.75,345.188,2
2022-04-27T13:07:49.692,,1,7,12,28.122,-80.575,3,3,3,3,-2.96,0.88,6.9,25.562,-2.188,-9.188,345.688,2,,
2022-04-27T13:07:50.000,,1,7,12,28.122,-80.575,3,3,3,3,-0.65,-0.28,9.05,9.75,25.188,-34.188,0.562,-4.062,345.25,2
2022-04-27T13:07:50.295,,1,7,12,28.122,-80.575,3,3,3,3,0.15,0.01,9.02,3.688,27.375,4.938,342.375,2,,
2022-04-27T13:07:50.589,,1,7,12,28.122,-80.575,3,3,3,3,-0.35,-1.36,8.89,27.75,-32.188,5.875,-0.625,334.5,2,
2022-04-27T13:07:51.000,,1,7,12,28.122,-80.575,3,3,3,3,-0.67,-1.76,8.04,10.375,30.062,-30.062,7.938,-2.375,337.375,2
2022-04-27T13:07:51.285,,1,7,12,28.122,-80.575,3,3,3,3,3.01,-5.31,10.68,14.188,25.5,-31.75,4.125,-0.5,341.875,2
2022-04-27T13:07:51.576,,1,7,12,28.122,-80.575,3,3,3,3,-0.1,-0.65,10.79,10.75,22.5,-35.188,-1.312,-3.062,339.625,2
2022-04-27T13:07:52.000,,1,7,12,28.122,-80.575,3,3,3,3,-1.84,-0.69,2.24,23.688,-34.25,3.375,-1.875,338.688,2,
2022-04-27T13:07:52.291,,1,7,12,28.122,-80.575,3,3,3,3,-0.34,0.52,8.44,9.25,24.75,-32.688,2.5,0.688,338.625,2
2022-04-27T13:07:52.591,,1,7,12,28.122,-80.575,3,3,3,3,0.19,3.27,20.4,10.375,25.5,-33.062,1.25,0.062,338.688,2
2022-04-27T13:07:52.880,,1,7,12,28.122,-80.575,3,3,3,3,0.28,-2.2,7.66,10.375,24.375,1.312,-3.062,338.938,2,
2022-04-27T13:07:52.1171,,1,7,12,28.122,-80.575,3,3,3,3,-1.24,0.96,9.4,10.375,25.062,-34.75,1.812,-2.25,338.625,2
2022-04-27T13:07:53.000,,1,7,12,28.122,-80.575,3,3,3,3,-0.32,-0.28,9.72,8.875,25.5,-35.5,-1.938,341.312,2,
2022-04-27T13:07:53.292,,1,7,12,28.122,-80.575,3,3,3,3,0.38,2.57,13.16,8.5,22.5,-34.75,-5.438,1.312,343.5,2
2022-04-27T13:07:54.000,,1,7,12,28.122,-80.575,3,3,3,3,0.19,0.98,8.68,35.188,64.688,-54.875,-6.125,4.25,347.188,2
2022-04-27T13:07:54.288,,1,7,12,28.122,-80.575,1,3,3,0,0.33,1.34,9.13,220.75,-137.562,-4.875,6.25,2,,
2022-04-27T13:07:54.581,,1,7,12,28.122,-80.575,0,3,3,0,0.61,0.92,9.6,110.875,210.25,-114.062,-5.25,6.938,349.375,2
2022-04-27T13:07:55.000,,1,7,12,28.122,-80.575,0,3,3,0,1.38,0.86,9.95,137.25,224.875,-70.875,-5.25,7.812,349.375,2
2022-04-27T13:07:55.295,,1,7,12,28.122,-80.575,0,3,3,0,1.07,0.69,9.62,157.75,281.5,-95.188,-4.688,8.688,349.062,2
2022-04-27T13:07:55.589,,1,7,12,28.122,-80.575,0,3,3,0,1.29,0.33,9.68,171.562,285.562,-100.562,-4.062,9.625,348.75,2
2022-04-27T13:07:55.930,,1,7,12,28.122,-80.575,0,3,3,0,0.32,0.11,9.61,-96.375,-4.125,9.25,349.562,2,,
2022-04-27T13:07:56.000,,1,7,12,28.122,-80.575,0,3,3,0,1.1,0.77,9.4,140.25,255.375,-68.375,-4.25,7.625,349.562,2
2022-04-27T13:07:56.280,,1,7,12,28.122,-80.575,0,3,3,0,0.63,1.18,9.34,131.375,233.75,-73.75,-5.812,6.25,349.812,2
2022-04-27T13:07:56.575,,1,7,12,28.122,-80.575,0,3,3,0,0.57,0.94,9.11,157.5,264.75,-96.062,-6.188,6.125,349.812,2
2022-04-27T13:07:57.000,,1,7,12,28.122,-80.575,0,3,3,0,1.04,0.79,9.02,153.375,265.375,-82.062,-6.562,8.625,350.438,2
2022-04-27T13:07:57.289,,1,7,12,28.122,-80.575,0,3,3,0,1.42,0.56,9.94,170.062,299.375,-104.25,-5.688,9.875,350.375,2
2022-04-27T13:07:57.577,,1,7,12,28.122,-80.575,0,3,3,0,1.33,1.44,8.99,183.562,331.062,-107.188,-6.5,9.25,351.5,2
2022-04-27T13:07:58.000,,1,7,12,28.122,-80.575,0,3,3,0,1.08,1.21,8.66,-94.375,-6.188,8.812,351.438,2,,
2022-04-27T13:07:58.346,,1,7,12,28.122,-80.575,0,3,3,0,1.15,0.39,9.03,295.562,-91.875,-6.75,7.062,350.625,2,
2022-04-27T13:07:58.634,,1,7,12,28.122,-80.575,0,3,3,0,0.6,1.26,9.7,178.688,306.062,-91.875,-5.875,8.062,349.75,2
2022-04-27T13:07:58.920,,1,7,12,28.122,-80.575,0,3,3,0,1.17,0.37,9.47,175.375,293.375,-90.25,-5.688,7.688,347.625,2
2022-04-27T13:07:58.1216,,1,7,12,28.122,-80.575,0,3,3,0,0.98,0.41,9.44,172.375,282.562,-87.375,-4.438,7.375,345.375,2
2022-04-27T13:07:58.1630,,1,7,12,28.122,-80.575,0,3,3,0,1.11,0.49,9.76,300.062,-99.75,-3.312,8.312,346.062,2,
2022-04-27T13:07:58.1916,,1,7,12,28.122,-80.575,0,3,3,0,0.89,0.77,8.55,302.75,-101.375,-2.688,9.562,346.312,2,
2022-04-27T13:08:00.000,,1,7,12,28.122,-80.575,0,3,3,0,0.51,0.48,9.13,159.688,295.562,-100.562,-2.75,7.812,346.188,2
2022-04-27T13:08:00.340,,1,7,12,28.122,-80.575,0,3,3,0,0.45,0.1,9.53,148.875,253.188,-86.562,-0.688,4.562,345.688,2
2022-04-27T13:08:00.629,,1,7,12,28.122,-80.575,0,3,3,0,0.27,0.29,9.33,158.188,254.688,-101.37,4.125,345.125,2,
2022-04-27T13:08:01.000,,1,7,12,28.122,-80.575,0,3,3,0,-0.15,0.16,8.73,23.25,24.375,-27.688,-2.812,1.312,343.938,2
2022-04-27T13:08:01.297,,1,7,12,28.122,-80.575,0,3,3,3,0.68,1.15,9.35,3.875,22.5,-35.5,-2.062,5.062,344.812,2
2022-04-27T13:08:01.586,,1,7,12,28.122,-80.575,3,3,3,3,0.72,0.25,9.5,1.25,22.875,-36.25,-2.188,6.188,346.125,2
2022-04-27T13:08:02.000,,1,7,12,28.122,-80.575,3,3,3,3,1.01,0.26,9.3,2.188,22.188,-35.562,-2.5,346.5,2,
2022-04-27T13:08:02.286,,1,7,12,28.122,-80.575,3,3,3,3,1.13,0.16,9.8,-1.875,6.375,345.938,2,,,
2022-04-27T13:08:02.578,,1,7,12,28.122,-80.575,3,3,3,3,0.37,0.15,9.13,2.188,23.25,-34.375,-1.25,5.938,345.312,2
2022-04-27T13:08:02.939,,1,7,12,28.122,-80.575,3,3,3,3,0.41,0.12,9.62,3.688,22.188,-35.188,-1.938,5.062,342.562,2
2022-04-27T13:08:02.1242,,1,7,12,28.122,-80.575,3,3,3,3,0.39,0.54,9.51,5.875,21.5,-3.062,3.562,2,,
2022-04-27T13:08:03.000,,1,7,12,28.122,-80.575,3,3,3,3,-1.35,0.73,11.57,9.18,-3.125,2,,,,
2022-04-27T13:08:03.294,,1,7,12,28.122,-80.575,3,3,3,3,-3.43,-4.15,-3.43,11.75,23.688,-33.562,2.125,-4.875,335.125,2
2022-04-27T13:08:04.000,,1,7,12,28.122,-80.575,3,3,3,3,-0.29,0.31,10.67,8.37,-33.562,-0.562,-0.812,338.562,2,
2022-04-27T13:08:04.289,,1,7,12,28.122,-80.575,2,3,3,3,0.1,3.22,15.82,-1.375,14.375,-23.2,1.688,338.562,2,
2022-04-27T13:08:04.586,,1,7,12,28.122,-80.575,0,3,3,3,-0.62,-0.54,9.08,46.25,-49.375,0.938,-2.062,338.312,2,
2022-04-27T13:08:05.000,,1,7,12,28.122,-80.575,0,3,3,3,-0.91,2.57,10.56,27.75,30.688,-44.25,0.062,-1.875,337.938,2
2022-04-27T13:08:05.352,,1,7,12,28.122,-80.575,0,3,3,3,0.45,-0.59,1.375,32.562,-49.25,-8.062,1.688,353.812,2,
2022-04-27T13:08:05.644,,1,7,12,28.122,-80.575,0,3,3,0,0.46,1.34,8.95,82.5,111.5,-125.5,-9.438,3.688,3.125,2
2022-04-27T13:08:05.935,,1,7,12,28.122,-80.575,0,3,3,0,1.18,0.41,9.96,131.375,243.75,-100.75,-7.375,5.5,5.938,2
2022-04-27T13:08:05.1229,,1,7,12,28.122,-80.575,0,3,3,0,0.85,1.13,9.36,154.75,254.25,-6.188,8.812,6.938,2,
2022-04-27T13:08:05.1522,,1,7,12,28.122,-80.575,0,3,3,0,1.51,0.48,8.9,140.25,234.75,-80.06,11.625,7.5,2,
2022-04-27T13:08:05.1820,,1,7,12,28.122,-80.575,0,3,3,0,5.13,-0.03,8.62,144.688,-78.875,-1.188,27.375,8.5,2,
2022-04-27T13:08:05.2124,,1,7,12,28.122,-80.575,0,3,3,0,3.82,2.17,8.01,131.25,265.75,-68.188,3.938,34.312,4.188,2
2022-04-27T13:08:05.2428,,1,7,12,28.122,-80.575,0,3,3,0,4.39,0.01,6.69,272.5,-66,37.438,1.312,2,,
2022-04-27T13:08:05.2793,,1,7,12,28.122,-80.575,0,3,3,0,7.21,-0.81,7.51,133.188,275.75,-66.875,7.188,40.125,1.5,2
2022-04-27T13:08:08.000,,1,7,12,28.122,-80.575,0,3,3,0,5.33,-0.51,6.63,141.688,301.188,-79.25,8.062,40.5,0.25,2
2022-04-27T13:08:08.303,,1,7,12,28.122,-80.575,0,3,3,0,6.15,-1.3,5.95,284.75,-66.562,10.312,42.875,359.688,2,
2022-04-27T13:08:08.605,,1,7,12,28.122,-80.575,0,3,3,0,6.98,-1.16,8.92,156.25,297.75,-72.25,11.5,44.875,359.688,2
2022-04-27T13:08:09.000,,1,7,12,28.122,-80.575,0,3,3,0,5.72,-1.02,7.3,140.25,303.062,-75.562,9.062,40.125,358.875,2
2022-04-27T13:08:09.429,,1,7,12,28.122,-80.575,0,3,3,0,2.77,0.67,9.14,166.375,-89.562,-0.938,21.125,357.938,2,
2022-04-27T13:08:09.733,,1,7,12,28.122,-80.575,0,3,3,0,2.61,0.63,10.5,150.375,-123.75,-8.812,7.25,357.438,2,
2022-04-27T13:08:10.000,,1,7,12,28.122,-80.575,0,3,3,0,1.11,1.03,14.29,-7.688,13.5,-30.75,-5.5,355.188,2,
2022-04-27T13:08:10.302,,1,7,12,28.122,-80.575,0,3,3,3,1.46,-1.65,11.13,-23.562,5.062,-21.5,-1.375,-1.5,353.062,2
2022-04-27T13:08:10.601,,1,7,12,28.122,-80.575,0,3,3,3,0.62,4.61,18.02,-25.188,4.062,-7.125,0.5,352.562,2,
2022-04-27T13:08:11.000,,1,7,12,28.122,-80.575,0,3,3,3,1.25,3.12,19.84,6.875,-17.688,-3.938,-2.562,351.75,2,
2022-04-27T13:08:11.294,,1,7,12,28.122,-80.575,0,3,3,3,-1.4,0.96,10.32,-27.688,3.375,-17.25,-3.5,-4.125,352.375,2
2022-04-27T13:08:11.592,,1,7,12,28.122,-80.575,0,3,3,3,-1.19,-0.59,7.54,7.375,-20.562,-1.43,351.062,2,,
2022-04-27T13:08:11.882,,1,7,12,28.122,-80.575,0,3,3,3,-2.66,-0.29,3.37,-21.688,7.25,-3.125,-3.5,2,,
2022-04-27T13:08:12.000,,1,7,12,28.122,-80.575,0,3,3,3,-2.23,0.16,2.61,-19.375,10.25,-20.562,-1.93,350.875,2,
2022-04-27T13:08:12.352,,1,7,12,28.122,-80.575,0,3,3,3,-1.84,0.55,-0.35,-21.688,5.375,-3.25,-3.938,349.562,2,
2022-04-27T13:08:12.641,,1,7,12,28.122,-80.575,0,3,3,3,-2.07,1.1,3.84,-22.062,7.25,-1.562,-2.938,349.875,2,
2022-04-27T13:08:13.000,,1,7,12,28.122,-80.575,0,3,3,3,1.23,-0.07,17.24,-21.75,7.688,-2.875,-3.688,350.188,2,
2022-04-27T13:08:13.293,,1,7,12,28.122,-80.575,0,3,3,3,-1.75,1.41,9.33,-20.25,12.25,-18.688,-1.3,347.875,2,
2022-04-27T13:08:13.595,,1,7,12,28.122,-80.575,0,3,3,3,2.73,0.11,9.92,-2.75,50.75,-37.875,-2.37,353.812,2,
2022-04-27T13:08:13.890,,1,7,12,28.122,-80.575,0,3,3,0,2.38,0.94,9.04,53.5,176.062,-87.062,-0.125,20.188,355.75,2
2022-04-27T13:08:13.1189,,1,7,12,28.122,-80.575,0,3,3,0,4.24,-0.69,9.3,174.562,293.062,-46.25,1.562,23.375,355.875,2
2022-04-27T13:08:13.1475,,1,7,12,28.122,-80.575,0,3,3,0,5.65,-1.29,9.44,299.75,-45.062,-0.562,25.188,357.5,2,
2022-04-27T13:08:13.1822,,1,7,12,28.122,-80.575,0,3,3,0,3.91,-0.18,6.83,173.062,318.5,-42.188,2.25,28.125,356.938,2
2022-04-27T13:08:13.2135,,1,7,12,28.122,-80.575,0,3,3,0,5.59,-1.42,5.87,159.562,316.25,-33.5,15.062,41.562,2,
2022-04-27T13:08:13.2426,,1,7,12,28.122,-80.575,0,3,3,0,7.39,-6.28,3.05,164.062,319.188,-14.062,56.75,45.688,340.688,2
2022-04-27T13:08:13.2731,,1,7,12,28.122,-80.575,0,3,3,0,5.06,-6.11,1.77,176.062,331.062,-5.875,69.75,39.812,331.188,2
2022-04-27T13:08:16.000,,1,7,12,28.122,-80.575,0,3,3,0,4.93,-6.04,2.39,181.562,340.062,-2.562,73.5,38.188,329.25,2
2022-04-27T13:08:16.294,,1,7,12,28.122,-80.575,0,3,3,0,5.64,-7.11,2.06,180.062,-0.062,73.438,38.562,328.812,2,
2022-04-27T13:08:16.588,,1,7,12,28.122,-80.575,0,3,3,0,6.14,-6.29,4.24,184.25,341.562,1.87,38.75,2,,
2022-04-27T13:08:17.000,,1,7,12,28.122,-80.575,0,3,3,0,3.79,-7.04,0.99,180.062,333.375,2.25,74.812,38.25,329.688,2
2022-04-27T13:08:17.352,,1,7,12,28.122,-80.575,0,3,3,0,5.64,-6.41,3.27,193.562,356.062,10.062,75.375,39.125,329.125,2
2022-04-27T13:08:17.644,,1,7,12,28.122,-80.575,0,3,3,0,5.99,-7.96,1.34,342.688,11.25,75.062,38.812,329.938,2,
2022-04-27T13:08:17.940,,1,7,12,28.122,-80.575,0,3,3,0,5.33,-6.18,1.88,182.75,340.062,14.25,75.5,39.188,2,
2022-04-27T13:08:18.000,,1,7,12,28.122,-80.575,0,3,3,0,5.82,-6.33,2.82,186.062,344.562,17.062,74.875,39.562,330.438,2
2022-04-27T13:08:18.292,,1,7,12,28.122,-80.575,0,3,3,0,7.42,-8.71,4.21,343.75,14.562,75.562,39.812,331.062,2,
2022-04-27T13:08:18.700,,1,7,12,28.122,-80.575,0,3,3,0,3.51,-5.46,0.36,185.75,344.18,74.688,41.125,331.312,2,
2022-04-27T13:08:19.000,,1,7,12,28.122,-80.575,0,3,3,0,3.82,-5.56,1.2,183.875,339.75,17.062,74.625,37.938,331.688,2
2022-04-27T13:08:19.341,,1,7,12,28.122,-80.575,0,3,3,0,4.68,-3.62,1.81,203.562,371.375,18.75,73.37,329.125,2,
2022-04-27T13:08:19.630,,1,7,12,28.122,-80.575,0,3,3,0,5.99,-5.98,3.07,175.25,332.562,12.562,69.125,41.562,334.25,2
2022-04-27T13:08:20.000,,1,7,12,28.122,-80.575,0,3,3,0,5.96,-6.12,1.16,181.25,342.688,16.25,68.562,42.875,337.125,2
2022-04-27T13:08:20.295,,1,7,12,28.122,-80.575,0,3,3,0,4.68,-8.03,0.13,168.25,325.188,14.562,70.875,41.188,337.812,2
2022-04-27T13:08:20.593,,1,7,12,28.122,-80.575,0,3,3,0,6.08,-0.86,4.17,171.562,328.5,7.562,58.188,45.938,340.062,2
2022-04-27T13:08:21.000,,1,7,12,28.122,-80.575,0,3,3,0,8.37,-6.49,4.67,178.688,338.25,15.875,68.81,2,,
2022-04-27T13:08:21.294,,1,7,12,28.122,-80.575,0,3,3,0,5.86,-5.34,2.9,332.562,11.75,67.062,44.188,337.812,2,
2022-04-27T13:08:21.585,,1,7,12,28.122,-80.575,0,3,3,0,5.97,-4.3,1.77,200.25,350.562,-78.875,53.875,44.688,333.312,2
2022-04-27T13:08:22.000,,1,7,12,28.122,-80.575,0,3,3,0,3.4,-0.31,4.98,-3.562,23.688,-24.062,-5.625,32.625,344.625,2
2022-04-27T13:08:22.301,,1,7,12,28.122,-80.575,3,3,3,3,4.98,1.1,6.46,-8.75,21.25,-20.75,-8.25,40.812,340.75,2
2022-04-27T13:08:22.594,,1,7,12,28.122,-80.575,3,3,3,3,4.24,0.52,7.51,-3.375,11.875,-27.188,-13.562,23.125,348.188,2
2022-04-27T13:08:22.888,,1,7,12,28.122,-80.575,1,3,3,3,-2.7,5.79,5.72,-0.562,16.062,-28.375,-19.125,15.562,359.375,2
2022-04-27T13:08:22.1189,,1,7,12,28.122,-80.575,1,3,3,3,3.89,2.08,9.96,-16.5,-24.5,9.5,357.5,2,,
2022-04-27T13:08:23.000,,1,7,12,28.122,-80.575,0,3,3,3,2.97,2.75,8.21,44.25,6.25,-7.875,13.562,349.625,2,
2022-04-27T13:08:23.298,,1,7,12,28.122,-80.575,0,3,3,3,0.71,0.66,8.73,-46.688,63.375,13.25,-7.188,9.875,346.312,2
2022-04-27T13:08:24.000,,1,7,12,28.122,-80.575,0,3,3,3,0.09,1.42,8.65,66.75,1.37,344.438,2,,,
2022-04-27T13:08:24.361,,1,7,12,28.122,-80.575,0,3,3,3,0.51,0.43,9.49,-49.5,68.75,2.75,-0.438,1.625,343.938,2
2022-04-27T13:08:24.658,,1,7,12,28.122,-80.575,0,3,3,3,2.67,2.17,18.23,-29.188,41.5,-2.812,1.5,347.188,2,
2022-04-27T13:08:25.000,,1,7,12,28.122,-80.575,0,3,3,3,0.13,0.45,11.45,-12.062,27.375,-25.25,-1.125,-2.375,348.125,2
2022-04-27T13:08:25.299,,1,7,12,28.122,-80.575,0,3,3,3,1.78,1.39,9.39,-32.75,50.06,-6.562,-0.375,348.875,2,
2022-04-27T13:08:25.600,,1,7,12,28.122,-80.575,0,3,3,3,-1.01,4.41,11.93,-26.75,32.688,-9.188,-13.312,2.625,349.5,2
2022-04-27T13:08:25.900,,1,7,12,28.122,-80.575,0,3,3,3,1.24,3.89,17.63,-37.25,40.562,-3.25,-6.875,7.875,2,
2022-04-27T13:08:25.1202,,1,7,12,28.122,-80.575,0,3,3,3,-0.97,1.67,8.27,-42.062,35.062,15.875,-8.312,7.938,3.625,2
2022-04-27T13:08:25.1505,,1,7,12,28.122,-80.575,0,3,3,3,1.43,2.65,9.39,-55.75,38.688,26.062,-5.688,8.812,9.188,2
2022-04-27T13:08:25.1854,,1,7,12,28.122,-80.575,0,3,3,3,-1.22,0.43,5.77,-21.25,19.188,-32.188,-4.562,-3.125,12.25,2
2022-04-27T13:08:27.000,,1,7,12,28.122,-80.575,0,3,3,3,-0.53,1.01,9.21,-2.688,-29.062,-13.062,2.938,27.5,2,
2022-04-27T13:08:27.295,,1,7,12,28.122,-80.575,0,3,3,3,1.85,1.69,10.48,-15.25,7.188,-5.75,2.5,30.562,2,
2022-04-27T13:08:27.595,,1,7,12,28.122,-80.575,0,3,3,0.42,8.68,-14.5,8.062,-29.25,0,30.188,2,,,
2022-04-27T13:08:28.000,,1,7,12,28.122,-80.575,0,3,3,3,0.38,0.41,9.79,-14.5,7.25,-27.688,-1.3,30.188,2,
2022-04-27T13:08:28.302,,1,7,12,28.122,-80.575,0,3,3,3,0.71,0.35,10.24,-14.875,8.25,-27.188,-0.75,2.062,29.125,2
2022-04-27T13:08:28.724,,1,7,12,28.122,-80.575,0,3,3,3,-0.07,0.93,9.54,-14.875,7.875,-1.25,1.625,29.938,2,
2022-04-27T13:08:29.000,,1,7,12,28.122,-80.575,0,3,3,3,-3.12,0.52,7.54,-15.875,4.25,-24.25,-4.812,-1.938,29.625,2
2022-04-27T13:08:29.299,,1,7,12,28.122,-80.575,0,3,3,3,-0.96,6.77,-43.375,-17.25,-26.562,2.06,50.25,2,,
2022-04-27T13:08:29.599,,1,7,12,28.122,-80.575,0,3,3,3,-0.37,5.97,6.72,-40.188,-46.75,-21.688,2.125,0.688,79.5,2
2022-04-27T13:08:30.000,,1,7,12,28.122,-80.575,0,3,3,3,2.91,1.04,3.16,-32.5,-47.188,-23.375,1.25,4.312,98.625,2
2022-04-27T13:08:30.305,,1,7,12,28.122,-80.575,0,3,3,3,1.51,0.12,9.26,-20.875,-51.562,-26.25,3.6,102.75,2,
2022-04-27T13:08:30.604,,1,7,12,28.122,-80.575,0,3,3,3,1.71,-1.78,11.93,-18.188,-55.75,-23.688,4.562,13.188,105.25,2
2022-04-27T13:08:31.000,,1,7,12,28.122,-80.575,0,3,3,3,1.21,-0.74,13.57,-13.688,-59.562,-26.375,5.25,7.812,2,
2022-04-27T13:08:31.301,,1,7,12,28.122,-80.575,0,3,3,3,1.57,0.82,10.04,-14.062,-59.875,-26.5,-0.812,6.938,105.562,2
2022-04-27T13:08:31.655,,1,7,12,28.122,-80.575,0,3,3,3,2.4,3.32,6.45,-4.188,-70.188,-26.188,-7.93,112.312,2,
2022-04-27T13:08:32.000,,1,7,12,28.122,-80.575,0,3,3,3,-1.24,-1.01,10.66,29.062,-74.25,-37.688,-3.438,-3.188,2,
2022-04-27T13:08:32.302,,1,7,12,28.122,-80.575,0,3,3,0,-4.7,1.58,9.11,-28.062,-89.062,-72.5,3.188,-19.625,170.438,2
2022-04-27T13:08:32.601,,1,7,12,28.122,-80.575,0,3,3,0,-4.28,0.77,7.18,,-227.062,-108.75,-1.062,-27.875,171.875,2
2022-04-27T13:08:32.902,,1,7,12,28.122,-80.575,0,3,3,0,-5.26,-0.14,7.68,-167.875,-250.188,-81.188,-1.75,-35.312,173.938,2
2022-04-27T13:08:33.000,,1,7,12,28.122,-80.575,0,3,3,0,-7.7,2.74,7.1,,-247.875,-77.875,-5.75,-41.25,2,
2022-04-27T13:08:33.303,,1,7,12,28.122,-80.575,0,3,3,0,-7.39,1.25,8.17,-145.5,-274.75,-6.562,-40.188,187.188,2,
2022-04-27T13:08:33.604,,1,7,12,28.122,-80.575,0,3,3,0,-5.86,1.3,8.37,-140.25,-275.062,-90.18,-35.125,185.75,2,
2022-04-27T13:08:33.960,,1,7,12,28.122,-80.575,0,3,3,0,-2.92,0.39,9.31,-162.688,-243.75,-86.562,-1.812,-11.625,173.75,2
2022-04-27T13:08:34.000,,1,7,12,28.122,-80.575,0,3,3,0,-1.9,10.34,-107.875,-99.562,-93.562,1.625,-2.5,170.25,2,
2022-04-27T13:08:34.299,,1,7,12,28.122,-80.575,0,3,3,0,-1.73,4.01,4.13,-7.188,-44.375,-45.25,-2.812,0.625,2,
2022-04-27T13:08:35.000,,1,7,12,28.122,-80.575,1,3,3,3,-0.27,-1.66,8.78,2.062,-48.062,-34.188,0.188,0.812,170.562,2
2022-04-27T13:08:35.309,,1,7,12,28.122,-80.575,0,3,3,3,0.61,-0.04,14.71,10.25,-36.875,-34.688,1.188,1.125,173.625,2
2022-04-27T13:08:35.609,,1,7,12,28.122,-80.575,0,3,3,3,1.93,1.12,1.54,38.562,-3.75,0.062,3.562,174.312,2,
2022-04-27T13:08:35.911,,1,7,12,28.122,-80.575,0,3,3,3,-0.97,-1.35,14.52,38.75,0.25,-24.5,2.5,172.812,2,
2022-04-27T13:08:35.1221,,1,7,12,28.122,-80.575,0,3,3,3,1.89,2.69,4.87,45.5,5.688,-0.125,2.938,175.25,2,
2022-04-27T13:08:35.1574,,1,7,12,28.122,-80.575,0,3,3,3,-0.14,0.9,11.03,52.25,11.062,-0.25,0.312,176.625,2,
2022-04-27T13:08:35.1875,,1,7,12,28.122,-80.575,0,3,3,3,0.3,-0.8,9.1,16.188,-8.188,0.375,-1.062,175.812,2,
2022-04-27T13:08:35.2183,,1,7,12,28.122,-80.575,0,3,3,3,-0.18,-1.94,9.59,12.188,-8.688,-0.5,-1.188,2,,
2022-04-27T13:08:35.2486,,1,7,12,28.122,-80.575,0,3,3,3,-0.86,2.43,1.35,14.5,-11.25,-19.375,-4.188,-1.125,176.938,2
2022-04-27T13:08:35.2785,,1,7,12,28.122,-80.575,0,3,3,3,-0.08,0.94,9.59,16.875,-8.75,-20.375,2.5,-2.5,182.125,2
2022-04-27T13:08:38.000,,1,7,12,28.122,-80.575,0,3,3,3,-0.57,-0.19,7.95,17.25,-11.188,-32.188,1.938,-3.625,177.75,2
2022-04-27T13:08:38.301,,1,7,12,28.122,-80.575,0,3,3,3,-1.13,0.42,8.21,-3.062,-24.688,-3.125,-3.188,172.312,2,
2022-04-27T13:08:38.769,,1,7,12,28.122,-80.575,0,3,3,3,-1.32,0.19,9.6,-0.25,-16.375,-28.188,-3.312,-6.125,174.25,2
2022-04-27T13:08:38.1062,,1,7,12,28.122,-80.575,1,3,3,3,-1.76,0.59,9.36,0.062,-17.25,-27.75,-1.812,-7.75,173.188,2
2022-04-27T13:08:38.1358,,1,7,12,28.122,-80.575,1,3,3,3,-1.89,1.54,9.98,-2.5,-15.5,-28.5,-11.188,170.688,2,
2022-04-27T13:08:38.1656,,1,7,12,28.122,-80.575,0,3,3,3,-14.32,9.03,-0.91,16.688,-15.75,-28.25,-58.75,178.375,2,
2022-04-27T13:08:40.000,,1,7,12,28.122,-80.575,0,3,3,3,-8.8,2.76,-8.1,12.688,-17.375,37.562,-168.25,-39.625,233.875,2
2022-04-27T13:08:40.292,,1,7,12,28.122,-80.575,0,3,3,3,1.75,-1.18,-1.94,-11.375,-3.188,44.75,-177.438,-15.938,2,
2022-04-27T13:08:40.587,,1,7,12,28.122,-80.575,0,3,3,3,-3.29,1.37,-13.51,-10.75,-5.875,42.562,-174.562,-13.938,242.875,2
2022-04-27T13:08:40.869,,1,7,12,28.122,-80.575,0,3,3,3,-0.02,0.51,-9.16,-12.688,-8.06,-177.438,-12.562,238.312,2,
2022-04-27T13:08:41.000,,1,7,12,28.122,-80.575,0,3,3,3,-8.15,0.49,-14.9,-18.875,-7.375,41.25,,-9.562,238.25,2
2022-04-27T13:08:41.292,,1,7,12,28.122,-80.575,0,3,3,3,-3.47,1.29,-7.8,-14.062,-6.188,42.062,-169.625,-23.938,236.812,2
2022-04-27T13:08:41.590,,1,7,12,28.122,-80.575,0,3,3,3,-3.35,2.42,4.71,22.75,-29.562,11.562,-40.625,-42.75,181.125,2
2022-04-27T13:08:42.000,,1,7,12,28.122,-80.575,1,3,3,3,-3.8,-8.51,12.75,-29.875,26.375,-134.375,-41.5,189.438,2,
2022-04-27T13:08:42.302,,1,7,12,28.122,-80.575,0,3,3,3,-9.73,3.19,-0.72,23.25,-8.25,36.375,-141.438,233.938,2,
2022-04-27T13:08:42.601,,1,7,12,28.122,-80.575,0,3,3,3,-10.58,6.65,3.1,37.188,-17.188,16.562,-64.5,-62.188,2,
2022-04-27T13:08:43.000,,1,7,12,28.122,-80.575,0,3,3,3,0.38,7.02,9.06,11.188,-38.375,-10.25,-37.812,-2.875,178.062,2
2022-04-27T13:08:43.294,,1,7,12,28.122,-80.575,2,3,3,3,0.03,5.65,8.46,-12.562,-36.062,-17.062,-30.812,13.625,172.688,2
2022-04-27T13:08:43.637,,1,7,12,28.122,-80.575,2,3,3,3,2.2,4.38,8.16,-7.75,-34.688,-20.375,-25.938,10.75,179.125,2
2022-04-27T13:08:44.000,,1,7,12,28.122,-80.575,3,3,3,3,-2.9,6.12,10.32,2.25,-32.5,-25.375,-25.438,-14.5,168.938,2
2022-04-27T13:08:44.295,,1,7,12,28.122,-80.575,3,3,3,3,-4.63,5.19,7.96,7.188,-36.5,-20.188,-32.562,-24.5,163.875,2
2022-04-27T13:08:44.585,,1,7,12,28.122,-80.575,3,3,3,3,-0.49,2.12,10.26,-0.188,-32.375,-25.188,-13.688,-4.312,160.812,2
2022-04-27T13:08:44.879,,1,7,12,28.122,-80.575,3,3,3,3,1.05,0.42,7.34,-13.25,-24.062,-31.875,-6.688,8.688,163.25,2
2022-04-27T13:08:44.1180,,1,7,12,28.122,-80.575,3,3,3,3,-0.08,3.58,5.67,-6.062,-27.5,-31.5,-10.625,3.562,166.188,2
2022-04-27T13:08:44.1478,,1,7,12,28.122,-80.575,3,3,3,3,1.21,0.68,14.43,-13.5,-23.5,-33.688,-4,166.188,2,
2022-04-27T13:08:44.1779,,1,7,12,28.122,-80.575,3,3,3,3,1.52,0.73,0.1,-10.875,-22.75,-34.062,-5.562,7.562,165.75,2
2022-04-27T13:08:46.000,,1,7,12,28.122,-80.575,3,3,3,3,0.55,1.01,0.44,-10.875,-24.062,-32.37,7.812,165.438,2,
2022-04-27T13:08:46.293,,1,7,12,28.122,-80.575,3,3,3,3,2.84,0.13,9.66,-12.375,-33.25,-4.562,10.562,165.125,2,
2022-04-27T13:08:46.587,,1,7,12,28.122,-80.575,3,3,3,3,0.46,0.76,10.33,-9.75,-34.5,-5.062,1.812,160.375,2,
2022-04-27T13:08:47.000,,1,7,12,28.122,-80.575,3,3,3,3,-0.42,0.28,8.74,-7.188,-22.688,-38.688,-1.062,0.125,164.875,2
2022-04-27T13:08:47.296,,1,7,12,28.122,-80.575,1,3,3,3,-0.69,-0.35,9.39,-89.062,-99.375,-118.062,7.188,1.188,169.188,2
2022-04-27T13:08:47.589,,1,7,12,28.122,-80.575,0,3,3,0,-0.05,-0.75,8.84,-192.25,-211.875,-146.5,6.188,3.188,170.688,2
2022-04-27T13:08:47.886,,1,7,12,28.122,-80.575,0,3,3,0,0.03,-1.09,8.9,-177.375,,-91.688,6.625,3.188,172.125,2
2022-04-27T13:08:47.1354,,1,7,12,28.122,-80.575,0,3,3,0,-2.22,-0.22,9.38,-167.688,-266.688,-111.062,4.75,-6.188,177.188,2
2022-04-27T13:08:48.000,,1,7,12,28.122,-80.575,0,3,3,0,-1.43,-0.78,9.81,-176.25,-300.25,-124.25,6.875,-3.938,178.938,2
2022-04-27T13:08:49.000,,1,7,12,28.122,-80.575,0,3,3,0,1.95,-1.98,8.95,-156.5,-253.375,-106.5,9.75,8.125,177.188,2
2022-04-27T13:08:49.296,,1,7,12,28.122,-80.575,0,3,3,0,0.64,-0.61,10.59,-125.188,-216.375,-117.688,3.25,176.5,2,
2022-04-27T13:08:49.587,,1,7,12,28.122,-80.575,0,3,3,0,1.17,1.08,6.87,-65.562,-66.5,1.5,175.938,2,,
2022-04-27T13:08:49.883,,1,7,12,28.122,-80.575,0,3,3,0,-0.73,2.75,4.17,19.75,-10.25,-18.188,2.688,11.562,182.5,2
2022-04-27T13:08:50.000,,1,7,12,28.122,-80.575,0,3,3,3,3.53,-2.83,17.91,36.75,2.75,3.75,11.375,184.125,2,
2022-04-27T13:08:50.299,,1,7,12,28.122,-80.575,0,3,3,3,2.8,-0.26,12.95,40.5,3.75,0.875,10.938,189.562,2,
2022-04-27T13:08:50.645,,1,7,12,28.122,-80.575,0,3,3,3,2.32,-1.81,14.21,41.875,1.562,-1.375,10.25,188.875,2,
2022-04-27T13:08:51.000,,1,7,12,28.122,-80.575,0,3,3,3,-0.74,3.98,2.01,41.562,1.562,-10.75,9.5,188.875,2,
2022-04-27T13:08:51.297,,1,7,12,28.122,-80.575,0,3,3,3,1.27,0.53,6.1,41.562,1.562,-2.438,9.312,188.312,2,
2022-04-27T13:08:51.593,,1,7,12,28.122,-80.575,0,3,3,3,1.96,-0.33,15.98,42.25,1.188,-10.75,-0.938,9.125,188.188,2
2022-04-27T13:08:51.898,,1,7,12,28.122,-80.575,0,3,3,3,1.12,3.28,7.67,39.25,3.062,-13.188,-5.062,13.5,186.938,2
2022-04-27T13:08:52.000,,1,7,12,28.122,-80.575,0,3,3,3,0.98,1.32,8.35,39.188,0.375,-9.562,-6.93,186.5,2,
2022-04-27T13:08:52.297,,1,7,12,28.122,-80.575,0,3,3,3,-0.03,1.62,8.86,38.75,-4.188,-3.062,-7.938,6.25,188.188,2
2022-04-27T13:08:52.580,,1,7,12,28.122,-80.575,0,3,3,3,0.76,0.85,7.66,28.75,-16.25,-7.062,-7.625,3.562,191.188,2
2022-04-27T13:08:52.927,,1,7,12,28.122,-80.575,0,3,3,3,0.53,-0.3,8.2,30.688,-8.062,-8.062,3.188,6.75,203.312,2
2022-04-27T13:08:53.000,,1,7,12,28.122,-80.575,0,3,3,3,1.12,0.58,8.59,26.375,-12.5,-3.562,9.25,199.25,2,
2022-04-27T13:08:53.292,,1,7,12,28.122,-80.575,0,3,3,3,0.77,1.97,6.9,26.062,-7.688,-15.188,-5.75,5.625,196.688,2
2022-04-27T13:08:54.000,,1,7,12,28.122,-80.575,0,3,3,3,0.73,2.03,8.43,27.562,-6.875,-11.875,-4.438,8.125,194.188,2
2022-04-27T13:08:54.289,,1,7,12,28.122,-80.575,0,3,3,3,1.2,0.66,4.63,25.25,-8.5,-6.062,6.438,193.25,2,
2022-04-27T13:08:54.578,,1,7,12,28.122,-80.575,0,3,3,3,-0.27,1.22,18.29,28.56,-8.562,-4.812,5.688,192.375,2,
2022-04-27T13:08:55.000,,1,7,12,28.122,-80.575,0,3,3,3,1.79,1.12,12.88,23.375,-7.75,-9.5,-4.81,188.312,2,
2022-04-27T13:08:55.293,,1,7,12,28.122,-80.575,0,3,3,3,-0.54,2.61,-7.57,25.75,-6.375,-9.188,-7.812,8.688,186.75,2
2022-04-27T13:08:55.632,,1,7,12,28.122,-80.575,0,3,3,3,0.47,2.22,9.05,25.688,-6.062,-8.375,-6.375,7.938,184.438,2
2022-04-27T13:08:55.926,,1,7,12,28.122,-80.575,0,3,3,3,0.34,1.44,-2.59,23.75,-6.062,-8.75,-8.5,9.438,184.312,2
2022-04-27T13:08:55.1223,,1,7,12,28.122,-80.575,0,3,3,3,0.21,2.48,14.31,26.75,-6.75,-6.812,8.875,186.375,2,
2022-04-27T13:08:55.1529,,1,7,12,28.122,-80.575,0,3,3,3,0.67,0.41,1.7,24.188,-6.188,-6.37,8.312,187.062,2,
2022-04-27T13:08:55.1823,,1,7,12,28.122,-80.575,0,3,3,3,2.12,-0.34,25.78,26.5,-7.25,-5.062,-6.75,7.938,185.812,2
2022-04-27T13:08:57.000,,1,7,12,28.122,-80.575,0,3,3,3,2.07,0.47,4.62,-5.875,-9.375,6.438,186.438,2,,
2022-04-27T13:08:57.295,,1,7,12,28.122,-80.575,0,3,3,3,-0.54,2.53,8.73,27.188,-9.875,1.375,-13.812,2.562,186.812,2
2022-04-27T13:08:57.589,,1,7,12,28.122,-80.575,0,3,3,3,-1.36,2.12,7.68,34.062,-14.562,3.688,-4.25,-9.812,191.875,2
2022-04-27T13:08:58.000,,1,7,12,28.122,-80.575,0,3,3,3,-3.42,0.46,8.71,26.562,0.5,-3.25,-12.875,170.25,2,
2022-04-27T13:08:58.302,,1,7,12,28.122,-80.575,0,3,3,3,-3.96,1.05,6.94,14.062,-21.25,5.875,-12.938,-26.438,159.75,2
2022-04-27T13:08:58.603,,1,7,12,28.122,-80.575,0,3,3,3,-2.47,-0.14,9.57,7.875,-20.688,2.25,0.875,-10.062,163.625,2
2022-04-27T13:08:59.000,,1,7,12,28.122,-80.575,0,3,3,3,-0.75,-1.52,8.64,21.25,-21.5,11.7,-8.875,179.188,2,
2022-04-27T13:08:59.297,,1,7,12,28.122,-80.575,0,3,3,3,-1.91,-0.44,9.94,26.688,-20.062,16.5,6.062,-4.688,183.562,2
2022-04-27T13:08:59.595,,1,7,12,28.122,-80.575,0,3,3,3,-0.87,-1.04,8.49,17.062,-18.5,13.375,3.688,-8.875,174.938,2
2022-04-27T13:08:59.894,,1,7,12,28.122,-80.575,0,3,3,3,-0.96,1.13,8.06,9.875,-20.25,2.75,-6.062,169.375,2,
2022-04-27T13:08:59.1249,,1,7,12,28.122,-80.575,0,3,3,3,2.31,0.9,2.68,8.188,-20.375,-11.188,-5.125,6.938,164.25,2
2022-04-27T13:08:59.1547,,1,7,12,28.122,-80.575,0,3,3,3,0.54,3.34,3.61,9.062,-18.5,-14.375,-7.5,8.188,165.188,2
2022-04-27T13:08:59.1839,,1,7,12,28.122,-80.575,0,3,3,3,1.92,-0.24,-1.26,8.5,-16.875,-14.75,4.562,166.312,2,
2022-04-27T13:09:01.000,,1,7,12,28.122,-80.575,0,3,3,3,-1.08,-1.13,26.7,-18.375,-5.312,3.625,166.438,2,,
2022-04-27T13:09:01.297,,1,7,12,28.122,-80.575,0,3,3,3,0.85,1.15,9.78,10.25,-16.5,-15.188,-5.8,166.375,2,
2022-04-27T13:09:01.593,,1,7,12,28.122,-80.575,0,3,3,3,0.74,1.98,18.95,-19.5,-13.062,-6.562,4.688,2,,
2022-04-27T13:09:02.000,,1,7,12,28.122,-80.575,0,3,3,3,1.24,0.25,-4.12,11.062,-16.188,-12.062,-7.188,3.875,167.25,2
2022-04-27T13:09:02.303,,1,7,12,28.122,-80.575,0,3,3,3,-0.81,1.62,11.7,11.062,-16.188,-12.875,-5.5,1.75,167.062,2
2022-04-27T13:09:02.663,,1,7,12,28.122,-80.575,0,3,3,3,1.4,0.97,-0.44,11.375,-12.875,-7.062,6.375,167.188,2,
2022-04-27T13:09:03.000,,1,7,12,28.122,-80.575,0,3,3,3,0.62,0.46,10.5,6.562,-17.688,-13.188,-7.625,6.062,165.625,2
2022-04-27T13:09:03.306,,1,7,12,28.122,-80.575,0,3,3,3,0.33,1.77,9.12,-6.375,-28.25,-32.188,-11.812,5.938,167.625,2
2022-04-27T13:09:03.603,,1,7,12,28.122,-80.575,3,3,3,3,0.24,1.8,9.82,-8.188,-29.75,-29.062,-12.375,3.875,167.625,2
2022-04-27T13:09:04.000,,1,7,12,28.122,-80.575,3,3,3,2.5,9.23,-7.5,-30.062,-29.875,-11.562,3.312,168.562,2,,
2022-04-27T13:09:04.301,,1,7,12,28.122,-80.575,3,3,3,3,-0.08,1.49,9.46,-6.688,-29.25,-11.938,3.188,168.938,2,
2022-04-27T13:09:04.604,,1,7,12,28.122,-80.575,3,3,3,3,0.13,1.86,9.55,-6.25,-29.25,-30.062,2.562,168.938,2,
2022-04-27T13:09:04.900,,1,7,12,28.122,-80.575,3,3,3,3,-0.37,2.19,9.25,-6.688,-28.562,-30.062,-12.188,2.938,168.875,2
2022-04-27T13:09:05.000,,1,7,12,28.122,-80.575,3,3,3,3,0.65,2.45,9.7,-6.688,-28.562,-28.5,-11.875,3.5,167.25,2
2022-04-27T13:09:05.303,,1,7,12,28.122,-80.575,3,3,3,3,0.29,2.72,9.69,-8.188,-28.188,-29.25,-12.312,4.562,167.562,2
2022-04-27T13:09:05.596,,1,7,12,28.122,-80.575,3,3,3,3,0.09,2.73,9.96,-8.562,-12.375,5.5,167.438,2,,
2022-04-27T13:09:06.000,,1,7,12,28.122,-80.575,3,3,3,3,2.14,0.72,8.76,-13.375,-25.562,-32.25,-10.5,8.562,161.938,2
2022-04-27T13:09:06.308,,1,7,12,28.122,-80.575,0,3,3,3,2.05,1.35,8.73,14.562,-17.375,-32.25,-9.438,6.438,163.75,2
2022-04-27T13:09:06.615,,1,7,12,28.122,-80.575,0,3,3,3,5.13,-1.32,8.65,27.188,-31.562,7.938,20.625,138.375,2,
2022-04-27T13:09:07.000,,1,7,12,28.122,-80.575,0,3,3,3,1.85,1.77,11.38,38.188,-41.062,-11.375,-7.562,14.25,2,
2022-04-27T13:09:07.311,,1,7,12,28.122,-80.575,0,3,3,3,1.32,0.95,9.3,37.25,-38.562,-14.562,-3.312,14.438,127.125,2
2022-04-27T13:09:07.787,,1,7,12,28.122,-80.575,0,3,3,3,4.59,-2.28,22.21,39.25,-42.188,-17.875,1.562,16.625,128.75,2
2022-04-27T13:09:07.1100,,1,7,12,28.122,-80.575,0,3,3,3,0.31,1.18,10.12,38.375,-42.688,-18.75,-6.125,13.625,127.75,2
2022-04-27T13:09:08.000,,1,7,12,28.122,-80.575,0,3,3,3,1.5,0.01,13.01,46.5,-43.375,-19.75,0.812,6.375,125.5,2
2022-04-27T13:09:08.307,,1,7,12,28.122,-80.575,0,3,3,3,-8.35,-3.44,15.17,52.25,-57.188,-29.25,3.812,-6.375,100.938,2
2022-04-27T13:09:09.000,,1,7,12,28.122,-80.575,0,3,3,3,-5.23,0.36,6.14,51.75,-50.5,4.562,-6.125,89.875,2,
2022-04-27T13:09:09.306,,1,7,12,28.122,-80.575,0,3,3,3,-2.85,-1.43,12.4,44.562,-51.688,-27.75,3.688,-4.625,88.625,2
2022-04-27T13:09:09.600,,1,7,12,28.122,-80.575,0,3,3,3,-5.13,-2.16,17.39,47.562,-56.688,-25.75,7.5,-7.312,89.938,2
2022-04-27T13:09:10.000,,1,7,12,28.122,-80.575,0,3,3,3,-4.58,-1.64,14.67,46.062,-57.25,-26.188,5.688,-3.625,90.938,2
2022-04-27T13:09:10.302,,1,7,12,28.122,-80.575,0,3,3,3,0.79,0.1,-58.75,-27.062,5.812,-0.75,90.688,2,,
2022-04-27T13:09:10.605,,1,7,12,28.122,-80.575,0,3,3,3,2.38,0.99,-0.28,48.188,-58.75,-26.25,5.125,0.938,91.375,2
2022-04-27T13:09:10.903,,1,7,12,28.122,-80.575,0,3,3,3,-1.63,-1.07,8.94,49.375,-59.562,4.062,-1.75,92.375,2,
2022-04-27T13:09:11.000,,1,7,12,28.122,-80.575,0,3,3,3,1.9,0.48,6.12,46.375,-59.562,-26.375,1.25,-0.438,100.438,2
2022-04-27T13:09:11.302,,1,7,12,28.122,-80.575,0,3,3,3,1.16,-0.45,10.7,35.25,-49.375,-22.875,2.938,9.312,122.688,2
2022-04-27T13:09:11.604,,1,7,12,28.122,-80.575,0,3,3,0,13.41,-6.84,8.68,-26.562,12.375,-32.375,5.438,-0.625,165.25,2
2022-04-27T13:09:11.912,,1,7,12,28.122,-80.575,0,3,3,0,-1.28,-0.43,10.54,12.062,-49.688,5.25,-0.625,164.625,2,
2022-04-27T13:09:11.1256,,1,7,12,28.122,-80.575,0,3,3,0,-1.54,-1.72,10.16,-43.5,-57.062,1.188,-10.125,171.5,2,
2022-04-27T13:09:11.1553,,1,7,12,28.122,-80.575,0,3,3,0,-2.65,1.87,8.7,-143.688,-175.75,-137.562,-2.25,-13.312,173.875,2
2022-04-27T13:09:13.000,,1,7,12,28.122,-80.575,0,3,3,0,-3.16,1.42,7.93,-175.688,-257.75,-70.375,-0.75,-18.688,174.625,2
2022-04-27T13:09:13.302,,1,7,12,28.122,-80.575,0,3,3,0,-7.5,1.8,7.72,-195.875,-308.062,-62.5,-7.75,-35.812,176.75,2
2022-04-27T13:09:13.608,,1,7,12,28.122,-80.575,0,3,3,0,-3.4,0.4,5.56,-170.5,-283.188,-57.562,-19.625,-37.688,173.312,2
2022-04-27T13:09:14.000,,1,7,12,28.122,-80.575,0,3,3,0,-7.28,7.21,5.91,-168.688,-291.375,-46.75,-36.5,-43.562,168.688,2
2022-04-27T13:09:14.299,,1,7,12,28.122,-80.575,0,3,3,0,-6.92,7.61,3.44,-177.188,-288.75,-34.375,-59.562,-42.875,2,
2022-04-27T13:09:14.590,,1,7,12,28.122,-80.575,0,3,3,0,-6.58,8.45,1.24,,-282.062,-24.062,-78.875,-38.062,151.562,2
2022-04-27T13:09:14.931,,1,7,12,28.122,-80.575,0,3,3,0,-6.04,9.13,0.49,-198.062,-304.75,-31.062,-81.375,-30.688,137.688,2
2022-04-27T13:09:15.000,,1,7,12,28.122,-80.575,0,3,3,0,-4.97,9.58,-1.06,,-311.062,-35.188,-82.562,-29.438,2,
2022-04-27T13:09:15.289,,1,7,12,28.122,-80.575,0,3,3,0,-6.24,9.15,2.35,-204.5,-321.562,-36.062,-82.25,-29.688,137.625,2
2022-04-27T13:09:15.588,,1,7,12,28.122,-80.575,0,3,3,0,-5.7,8.24,2.62,-198.5,-309.25,-32.375,-82.625,-29.062,137.25,2
2022-04-27T13:09:16.000,,1,7,12,28.122,-80.575,0,3,3,0,-5.85,8.7,2.5,-202.188,-316.75,-30.688,-80.75,-28.625,137.25,2
2022-04-27T13:09:16.307,,1,7,12,28.122,-80.575,0,3,3,0,-5.22,8.44,2.26,-202.562,-311.5,-28.688,-78.5,-28.75,137.812,2
2022-04-27T13:09:16.606,,1,7,12,28.122,-80.575,0,3,3,0,-4.58,8.57,0.37,-200.688,-317.875,-27.375,-80.688,-28.75,137.438,2
